City_ID,City,Lat,Lng,Max Temp,Humidity,Cloudiness,Wind Speed,Country,Date
0,port-gentil,-0.7193,8.7815,27.98,81,75,3.6,GA,1680475843
1,dikson,73.5069,80.5464,-26.5,95,100,5.75,RU,1680475833
2,cape town,-33.9258,18.4232,21.32,86,75,4.63,ZA,1680475800
3,georgetown,5.4112,100.3354,25.96,88,20,1.03,MY,1680475728
4,pravia,43.4906,-6.1508,8.37,81,40,1.03,ES,1680476382
5,geraldton,-28.7667,114.6,18.23,88,75,2.57,AU,1680475877
6,chokurdakh,70.6333,147.9167,-21.67,91,72,5.6,RU,1680475843
7,dunedin,-45.8742,170.5036,16.71,57,17,0.89,NZ,1680475777
8,saint-philippe,-21.3585,55.7679,24.77,82,98,4.0,RE,1680475816
9,nikolskoye,59.7035,30.7861,-2.06,96,100,5.39,RU,1680475835
10,fortuna,40.5982,-124.1573,10.19,81,100,2.45,US,1680475846
11,platanos,37.6667,21.6167,14.76,86,98,2.0,GR,1680476382
12,rikitea,-23.1203,-134.9692,26.86,81,29,7.19,PF,1680475820
13,butaritari,3.0707,172.7902,27.49,78,33,4.88,KI,1680475838
14,loandjili,-4.7561,11.8578,26.41,86,94,3.0,CG,1680476382
15,hay river,60.8156,-115.7999,-9.02,79,100,2.57,CA,1680476382
16,sitka,57.0531,-135.33,5.94,70,75,2.06,US,1680475825
17,faanui,-16.4833,-151.75,28.3,69,100,3.48,PF,1680475841
18,husavik,66.0449,-17.3389,1.11,82,100,3.27,IS,1680475851
19,thompson,55.7435,-97.8558,-11.91,48,20,5.66,CA,1680475823
20,ushuaia,-54.8,-68.3,11.81,54,40,3.6,AR,1680475607
21,port elizabeth,-33.918,25.5701,21.29,70,0,6.69,ZA,1680475835
22,albany,42.6001,-73.9662,5.36,26,8,1.79,US,1680475576
23,antofagasta,-23.65,-70.4,22.6,84,39,1.82,CL,1680476114
24,luderitz,-26.6481,15.1594,15.81,86,4,5.46,NA,1680475841
25,yugorsk,61.3133,63.3319,-0.96,95,71,1.02,RU,1680476383
26,claresholm,50.0333,-113.5852,2.59,60,100,1.54,CA,1680476383
27,punta arenas,-53.15,-70.9167,15.06,41,75,3.6,CL,1680476384
28,norrtalje,59.758,18.705,-1.66,89,13,3.02,SE,1680476384
29,cayenne,4.9333,-52.3333,25.02,83,75,2.06,GF,1680475824
30,ucluelet,48.9329,-125.5528,6.17,71,92,5.54,CA,1680475878
31,goderich,43.7501,-81.7165,4.95,48,40,5.14,CA,1680476361
32,kavieng,-2.5744,150.7967,28.8,74,99,5.44,PG,1680475824
33,salalah,17.0151,54.0924,28.05,83,75,3.09,OM,1680475873
34,upington,-28.4478,21.2561,22.21,28,72,3.09,ZA,1680476384
35,trinidad,-14.8333,-64.9,30.99,70,40,1.54,BO,1680476204
36,dhidhdhoo,6.8833,73.1,28.25,63,100,2.88,MV,1680476384
37,vaini,-21.2,-175.2,28.09,69,20,6.17,TO,1680475830
38,bengkulu,-3.8004,102.2655,23.08,91,99,2.06,ID,1680475848
39,kapaa,22.0752,-159.319,27.18,72,20,3.6,US,1680475821
40,new norfolk,-42.7826,147.0587,15.51,66,60,1.34,AU,1680475837
41,vardo,70.3705,31.1107,-5.01,80,75,5.14,NO,1680476139
42,teya,60.3778,92.6267,-7.26,92,100,3.41,RU,1680476385
43,hobart,-42.8794,147.3294,15.7,68,20,3.6,AU,1680475818
44,hermanus,-34.4187,19.2345,18.78,94,38,1.88,ZA,1680475826
45,port augusta,-32.5,137.7667,18.58,31,84,1.93,AU,1680475874
46,djougou,9.7085,1.666,30.79,30,64,0.43,BJ,1680476385
47,sri aman,1.2376,111.4621,22.03,100,100,0.0,MY,1680476277
48,lata,40.1629,-8.3327,11.62,76,99,1.02,PT,1680475873
49,busselton,-33.65,115.3333,14.76,91,1,4.09,AU,1680475820
50,byron bay,-28.65,153.6167,19.28,84,50,3.82,AU,1680475829
51,vestmannaeyjar,63.4427,-20.2734,5.86,91,100,10.05,IS,1680476305
52,norman wells,65.282,-126.8329,-7.98,57,75,2.06,CA,1680475856
53,pochutla,15.7432,-96.4661,30.46,52,18,3.37,MX,1680476385
54,airai,-8.9266,125.4092,16.87,87,60,0.78,TL,1680475839
55,kommunisticheskiy,61.6789,64.4819,-0.7,93,65,1.41,RU,1680476385
56,bredasdorp,-34.5322,20.0403,17.62,91,2,2.91,ZA,1680475815
57,tasiilaq,65.6145,-37.6368,-1.91,92,99,2.89,GL,1680475837
58,lebu,-37.6167,-73.65,12.27,82,0,6.52,CL,1680475822
59,east retford,53.3221,-0.9432,4.25,45,4,2.13,GB,1680476386
60,hilo,19.7297,-155.09,25.34,90,75,3.6,US,1680475807
61,avarua,-21.2078,-159.775,27.03,69,75,4.63,CK,1680475823
62,arraial do cabo,-22.9661,-42.0278,23.92,78,75,4.12,BR,1680475836
63,lompoc,34.6391,-120.4579,19.88,76,75,12.52,US,1680475664
64,vila franca do campo,37.7167,-25.4333,13.23,60,29,6.69,PT,1680475853
65,chuy,-33.6971,-53.4616,16.87,78,81,2.7,UY,1680475827
66,butembo,0.15,29.2833,13.69,96,43,0.93,CD,1680476386
67,saskylakh,71.9167,114.0833,-8.35,96,100,1.69,RU,1680475832
68,iwanai,42.9744,140.5089,7.28,54,3,0.7,JP,1680475871
69,barrow,71.2906,-156.7887,-13.99,78,100,5.14,US,1680475824
70,lucea,18.451,-78.1736,28.25,72,26,3.96,JM,1680476386
71,mahebourg,-20.4081,57.7,26.25,89,75,3.09,MU,1680475828
72,bluff,-46.6,168.3333,14.33,66,92,4.11,NZ,1680475823
73,hithadhoo,-0.6,73.0833,27.7,71,13,2.79,MV,1680475828
74,sao joao da barra,-21.6403,-41.0511,25.05,75,58,5.12,BR,1680476386
75,ambilobe,-13.2,49.05,22.37,96,90,1.31,MG,1680476387
76,dongsheng,39.8161,109.9776,-1.06,97,100,10.94,CN,1680476387
77,worland,44.0169,-107.9554,9.38,41,40,3.58,US,1680476151
78,hurghada,27.2574,33.8129,18.02,42,0,3.09,EG,1680476387
79,coffs harbour,-30.3,153.1333,20.07,88,75,4.63,AU,1680476387
80,sabancuy,18.9667,-91.1833,29.55,61,1,4.29,MX,1680476387
81,upernavik,72.7868,-56.1549,-29.28,98,45,0.87,GL,1680475830
82,puerto ayora,-0.7393,-90.3518,29.98,89,84,3.58,EC,1680475820
83,huarmey,-10.0681,-78.1522,25.86,79,62,3.45,PE,1680476387
84,rieti,42.4072,12.8592,10.34,83,99,2.61,IT,1680476387
85,port blair,11.6667,92.75,25.71,76,100,2.9,IN,1680475853
86,ostrovnoy,68.0531,39.5131,-8.48,86,100,2.31,RU,1680475849
87,lorengau,-2.0226,147.2712,28.05,77,99,2.82,PG,1680475854
88,ulladulla,-35.35,150.4667,18.2,67,29,0.74,AU,1680475856
89,havoysund,70.9963,24.6622,-0.87,78,99,5.06,NO,1680475830
90,hambantota,6.1241,81.1185,24.63,86,2,1.88,LK,1680475859
91,saldanha,-33.0117,17.9442,18.03,92,67,4.3,ZA,1680476388
92,yellowknife,62.456,-114.3525,-10.71,62,75,0.0,CA,1680475827
93,aliwal north,-30.6937,26.7114,14.29,85,100,1.63,ZA,1680476388
94,cabo san lucas,22.8909,-109.9124,29.78,50,100,0.89,MX,1680475819
95,iwaki,37.05,140.8833,11.12,67,86,2.24,JP,1680476388
96,sao filipe,14.8961,-24.4956,24.86,60,0,3.23,CV,1680475847
97,baghdad,33.3406,44.4009,13.95,54,0,1.03,IQ,1680476388
98,opuwo,-18.0607,13.84,20.57,35,9,1.85,NA,1680475872
99,mataura,-46.1927,168.8643,14.15,56,70,1.21,NZ,1680475823
100,sterling,39.0062,-77.4286,13.48,37,20,3.6,US,1680476090
101,hasaki,35.7333,140.8333,12.22,60,100,9.28,JP,1680475851
102,hirara,24.8,125.2833,18.92,77,75,1.54,JP,1680475853
103,grand gaube,-20.0064,57.6608,26.32,76,93,5.15,MU,1680476389
104,saint-louis,16.3333,-15.0,31.8,13,93,6.87,SN,1680476389
105,east london,-33.0153,27.9116,21.58,77,100,3.76,ZA,1680475815
106,tuatapere,-46.1333,167.6833,13.81,55,93,1.87,NZ,1680475830
107,grindavik,63.8424,-22.4338,4.26,87,100,7.2,IS,1680476389
108,port alfred,-33.5906,26.891,20.66,93,100,0.45,ZA,1680475838
109,manggar,-2.8833,108.2667,25.02,84,100,1.25,ID,1680475875
110,moerai,-22.4333,-151.3333,22.91,82,100,2.41,PF,1680475861
111,camapua,-19.5314,-54.0439,23.57,68,0,2.2,BR,1680476389
112,lagoa,39.05,-27.9833,13.67,59,69,9.44,PT,1680475859
113,lasa,46.6166,10.7002,8.49,94,61,2.81,IT,1680475852
114,lunsar,8.6833,-12.5333,26.21,82,30,1.82,SL,1680476389
115,poum,-20.2333,164.0167,26.74,72,8,2.2,NC,1680475838
116,padang,-0.9492,100.3543,24.03,87,100,0.52,ID,1680476389
117,ponta delgada,37.7333,-25.6667,13.4,71,20,4.63,PT,1680475856
118,papetoai,-17.4961,-149.8729,31.77,74,100,3.53,PF,1680476390
119,san pedro,14.35,121.0167,26.86,79,20,1.03,PH,1680476257
120,tuktoyaktuk,69.4541,-133.0374,-17.0,71,20,5.14,CA,1680475856
121,bambous virieux,-20.3428,57.7575,26.23,89,75,3.09,MU,1680475849
122,castro,-24.7911,-50.0119,16.75,92,60,2.97,BR,1680475828
123,kenai,60.5544,-151.2583,3.05,32,0,1.54,US,1680476390
124,katherine,-14.4667,132.2667,28.18,74,20,2.57,AU,1680475833
125,touros,-5.1989,-35.4608,25.8,81,100,2.86,BR,1680475846
126,hastings,50.8552,0.5729,6.1,40,6,5.09,GB,1680475878
127,barao de melgaco,-16.1944,-55.9675,24.23,83,53,1.21,BR,1680476390
128,coahuayana,18.7333,-103.6833,29.41,48,97,2.75,MX,1680476390
129,khasan,42.4308,130.6434,5.36,84,10,1.78,RU,1680476390
130,mar del plata,-38.0023,-57.5575,21.08,59,0,2.57,AR,1680475635
131,damietta,31.4165,31.8133,17.94,74,3,3.66,EG,1680476391
132,balkanabat,39.5108,54.3671,9.39,76,100,4.72,TM,1680476391
133,chivay,-15.6383,-71.6011,11.02,80,98,2.28,PE,1680476391
134,komsomolskiy,40.4272,71.7189,13.4,71,97,3.09,UZ,1680475857
135,tura,25.5198,90.2201,18.03,82,61,2.18,IN,1680475837
136,cherskiy,68.75,161.3,-27.75,93,30,2.15,RU,1680475830
137,kaman,27.65,77.2667,21.95,52,1,0.92,IN,1680476392
138,iqaluit,63.7506,-68.5145,-11.15,57,75,4.63,CA,1680475832
139,ponta do sol,32.6667,-17.1,19.28,82,0,1.44,PT,1680475835
140,catuday,16.2923,119.8062,25.15,78,60,1.14,PH,1680475852
141,rosarito,32.3333,-117.0333,19.24,73,14,3.37,MX,1680476392
142,kiboga,0.9161,31.7742,15.98,98,73,0.73,UG,1680476392
143,tabora,-5.0167,32.8,20.88,88,75,0.0,TZ,1680476392
144,cocobeach,1.0002,9.5823,26.89,82,40,3.06,GA,1680476392
145,khatanga,71.9667,102.5,-13.25,96,100,4.36,RU,1680475835
146,contramaestre,20.2978,-76.2414,27.08,52,15,5.18,CU,1680476393
147,shingu,33.7333,135.9833,13.4,85,100,5.49,JP,1680475873
148,ilulissat,69.2167,-51.1,-14.99,85,99,2.06,GL,1680475849
149,konstantinovsk,47.5828,41.0922,6.81,74,61,2.6,RU,1680476393
150,ust-nera,64.5667,143.2,-15.39,91,82,3.34,RU,1680476361
151,flinders,-34.5833,150.8552,21.7,83,57,1.34,AU,1680475844
152,chuguyevka,44.1653,133.8633,11.27,46,6,1.21,RU,1680476393
153,atuona,-9.8,-139.0333,27.26,76,40,6.46,PF,1680475828
154,dzheyrakh,42.8228,44.6756,-2.34,58,43,1.19,RU,1680476394
155,bakchar,57.0186,82.0711,-4.96,77,98,4.34,RU,1680476394
156,fairbanks,64.8378,-147.7164,0.61,77,100,5.14,US,1680475544
157,taoudenni,22.6783,-3.9836,28.9,6,0,4.37,ML,1680476144
158,alameda,37.5999,-121.8844,15.66,63,73,3.58,US,1680476395
159,shirpur,21.35,74.8833,24.39,59,2,6.77,IN,1680476395
160,chapais,49.7834,-74.8492,-8.12,93,100,0.2,CA,1680475876
161,serenje,-13.2325,30.2352,15.69,97,97,3.47,ZM,1680476395
162,jamestown,42.097,-79.2353,6.12,33,0,2.06,US,1680475688
163,christchurch,-43.5333,172.6333,16.29,74,40,3.6,NZ,1680476095
164,honiara,-9.4333,159.95,29.88,70,95,2.55,SB,1680476396
165,evensk,61.95,159.2333,-8.64,72,100,5.61,RU,1680476396
166,biltine,14.5333,20.9167,27.49,13,13,2.95,TD,1680476396
167,takhatgarh,25.3333,73.0,22.76,53,0,2.62,IN,1680476396
168,tiksi,71.6872,128.8694,-7.67,80,100,8.21,RU,1680475846
169,saint-augustin,51.226,-58.6502,-0.79,97,100,1.98,CA,1680475844
170,ivanivka,46.7208,34.553,8.95,95,100,6.24,UA,1680476397
171,osypenko,46.9136,36.8253,6.83,97,70,3.96,UA,1680476397
172,xam nua,20.4197,104.0439,19.01,66,28,1.53,LA,1680476397
173,provideniya,64.3833,-173.3,-10.91,57,75,2.0,RU,1680475831
174,beringovskiy,63.05,179.3167,-4.63,85,99,4.03,RU,1680475846
175,gat,31.61,34.7642,15.78,61,13,2.49,IL,1680475844
176,kelso,46.1468,-122.9084,7.69,84,75,3.09,US,1680476398
177,jaguaruna,-28.615,-49.0256,19.06,74,2,0.75,BR,1680476398
178,carnarvon,-24.8667,113.6333,23.6,79,64,4.01,AU,1680475825
179,la palma,33.8464,-118.0467,23.84,60,0,4.12,US,1680476398
180,kasongo-lunda,-6.4667,16.8167,20.27,92,92,0.21,CD,1680476398
181,san miguel,13.4833,-88.1833,36.91,14,88,2.34,SV,1680476398
182,plettenberg bay,-34.0527,23.3716,18.32,82,84,3.54,ZA,1680475526
183,veraval,20.9,70.3667,23.13,78,0,3.9,IN,1680476399
184,katsuura,35.1333,140.3,11.46,72,100,8.81,JP,1680475816
185,gao,16.6362,1.637,25.71,7,60,5.5,ML,1680476399
186,leningradskiy,69.3833,178.4167,-21.08,86,100,5.11,RU,1680475852
187,nikolayevsk-na-amure,53.1406,140.73,1.06,71,92,1.17,RU,1680476399
188,caravelas,-17.7125,-39.2481,26.14,75,47,4.82,BR,1680475851
189,whyalla,-33.0333,137.5833,18.24,39,99,3.05,AU,1680475853
190,codrington,-38.2667,141.9667,13.59,72,0,3.0,AU,1680476110
191,ilesha,7.1371,5.2583,24.55,90,98,1.78,NG,1680476401
192,dezhou,37.4486,116.2925,14.75,45,100,3.23,CN,1680476403
193,kota bahru,6.1333,102.2386,24.97,94,20,0.51,MY,1680476404
194,san quintin,30.4833,-115.95,16.03,68,0,8.34,MX,1680475846
195,eureka,40.8021,-124.1637,9.58,81,100,4.02,US,1680476388
196,manzil salim,35.8567,8.4765,7.67,83,65,13.88,TN,1680476405
197,niquelandia,-14.4739,-48.4597,21.02,95,100,0.59,BR,1680476256
198,gizo,-8.103,156.8419,28.07,71,100,3.77,SB,1680476406
199,deputatskiy,69.3,139.9,-19.7,88,97,1.45,RU,1680476406
200,parfenyevo,58.484,43.4088,4.04,94,100,2.07,RU,1680476407
201,victoria,22.2855,114.1577,22.03,90,95,0.45,HK,1680475722
202,gazojak,41.1875,61.4036,10.17,44,77,4.19,TM,1680475855
203,weligama,5.9667,80.4167,24.74,87,27,1.77,LK,1680476409
204,naples,40.8333,14.25,14.86,55,0,3.6,IT,1680476420
205,srandakan,-7.9386,110.2506,23.72,93,97,1.12,ID,1680476420
206,berestechko,50.3605,25.1107,3.33,97,100,5.54,UA,1680476420
207,boundiali,9.5217,-6.4869,29.85,32,21,1.31,CI,1680476421
208,longyearbyen,78.2186,15.6401,-8.09,93,75,1.54,SJ,1680475837
209,bada,51.392,109.8717,-11.96,76,98,6.24,RU,1680476422
210,linden,6.0,-58.3,25.01,73,98,2.68,GY,1680476422
211,prestea,5.4327,-2.1428,24.34,94,65,0.37,GH,1680476422
212,vanimo,-2.6741,141.3028,25.95,86,100,1.91,PG,1680475868
213,borazjan,29.2666,51.2159,14.59,31,0,3.36,IR,1680476423
214,souillac,-20.5167,57.5167,26.21,89,75,3.09,MU,1680475850
215,dingle,10.9995,122.6711,24.91,81,94,2.62,PH,1680475868
216,cap malheureux,-19.9842,57.6142,26.37,76,96,6.11,MU,1680476423
217,lovozero,68.005,35.0117,-15.12,100,87,1.46,RU,1680476423
218,kholmogory,64.2229,41.656,-7.45,91,16,3.01,RU,1680476424
219,taltal,-25.4,-70.4833,20.61,88,51,3.08,CL,1680476434
220,tonantins,-2.8731,-67.8022,23.3,94,100,0.78,BR,1680476434
221,alta floresta,-9.8756,-56.0861,22.9,100,75,1.54,BR,1680475849
222,nurota,40.5614,65.6886,12.6,60,100,2.53,UZ,1680476434
223,ron phibun,8.1791,99.8542,27.83,94,80,0.7,TH,1680476435
224,kahului,20.8947,-156.47,28.01,54,75,7.2,US,1680475842
225,lavrentiya,65.5833,-171.0,-14.36,72,25,0.43,RU,1680475847
226,burnie,-41.0667,145.9167,14.41,91,74,1.5,AU,1680476435
227,andros town,24.7,-77.7667,26.98,64,100,1.0,BS,1680476435
228,mount isa,-20.7333,139.5,22.87,33,53,3.09,AU,1680475860
229,viedma,-40.8135,-62.9967,16.35,74,100,5.01,AR,1680475729
230,bayji,34.9311,43.487,16.69,41,100,2.72,IQ,1680476435
231,broken hill,-31.95,141.4333,16.21,32,86,3.62,AU,1680476436
232,jacksonville,30.3322,-81.6556,29.0,33,75,4.63,US,1680476252
233,puerto suarez,-18.95,-57.8,26.31,68,60,1.73,BO,1680476437
234,richards bay,-28.783,32.0377,22.65,82,58,6.76,ZA,1680476389
235,kodiak,57.79,-152.4072,2.73,48,0,5.66,US,1680475851
236,greenwood,34.1668,-82.1165,22.2,21,0,2.06,US,1680476437
237,nantucket,41.2835,-70.0995,6.06,54,2,7.67,US,1680476437
238,pangnirtung,66.1451,-65.7125,-16.16,80,100,2.75,CA,1680475842
239,ribeira grande,38.5167,-28.7,13.21,68,68,0.45,PT,1680476437
240,broome,42.2506,-75.833,3.65,37,7,2.24,US,1680476438
241,russell,32.3502,-85.1999,22.6,54,98,2.11,US,1680476433
242,soyo,-6.1349,12.3689,28.14,81,16,5.93,AO,1680476438
243,labuhan,-6.8844,112.2051,23.93,85,100,2.96,ID,1680476438
244,qaanaaq,77.484,-69.3632,-25.72,64,4,0.39,GL,1680476438
245,port-cartier,50.0334,-66.8654,-4.18,74,10,9.72,CA,1680476438
246,zabaykalsk,49.6333,117.3167,-9.24,73,97,8.97,RU,1680476439
247,namibe,-15.1961,12.1522,24.13,76,17,4.26,AO,1680475847
248,berlevag,70.8578,29.0864,-3.03,74,88,7.2,NO,1680476439
249,ust-karsk,52.7011,118.8077,-8.01,84,95,3.4,RU,1680476439
250,pak phanang,8.3511,100.202,28.01,86,90,1.12,TH,1680476439
251,auriflama,-20.6856,-50.5547,23.38,73,0,1.94,BR,1680476439
252,la ronge,55.1001,-105.2842,-4.86,28,40,5.66,CA,1680476440
253,deoband,29.7,77.6833,17.99,65,24,0.59,IN,1680476440
254,savannah bight,16.45,-85.85,26.48,79,22,11.11,HN,1680476440
255,samarai,-10.6167,150.6667,28.69,75,86,3.83,PG,1680475851
256,batagay-alyta,67.8006,130.4114,-15.32,82,100,3.14,RU,1680476440
257,wakkanai,45.4094,141.6739,3.74,50,0,2.23,JP,1680476440
258,kismayo,-0.3582,42.5454,27.68,77,49,4.86,SO,1680476440
259,talnakh,69.4865,88.3972,-9.14,96,100,3.95,RU,1680475872
260,sychevka,55.8252,34.2736,0.73,95,100,3.89,RU,1680476440
261,vila,42.0304,-8.1588,5.94,59,90,1.79,PT,1680476441
262,maputo,-25.9653,32.5892,24.57,83,40,2.68,MZ,1680476441
263,abu kamal,34.4506,40.9171,16.28,51,45,1.84,SY,1680476441
264,genhe,50.7833,121.5167,-4.87,80,100,5.11,CN,1680476441
265,haysville,37.5645,-97.3523,28.04,31,0,6.69,US,1680476441
266,phuthaditjhaba,-28.5242,28.8158,14.42,58,44,1.66,ZA,1680476442
267,klaksvik,62.2266,-6.589,5.51,82,100,4.23,FO,1680476442
268,tanggu,39.0211,117.6469,12.98,60,100,3.2,CN,1680476442
269,takoradi,4.8845,-1.7554,25.89,90,31,0.88,GH,1680476442
270,aykhal,66.0,111.5,-8.38,89,100,12.45,RU,1680476443
271,johnson city,36.3134,-82.3535,14.97,28,0,0.51,US,1680476300
272,madison,34.7334,-86.5667,21.03,31,0,1.34,US,1680476225
273,urengoy,65.9667,78.3667,-5.95,96,100,2.75,RU,1680476443
274,hovd,48.0056,91.6419,-13.62,39,30,1.34,MN,1680476443
275,esperance,-33.8667,121.9,18.08,72,94,2.23,AU,1680476443
276,mangrol,21.1167,70.1167,23.34,76,0,3.96,IN,1680476443
277,ipora,-16.4419,-51.1178,23.88,74,72,1.84,BR,1680476443
278,bethel,41.3712,-73.414,8.93,28,0,6.17,US,1680476314
279,port hardy,50.6996,-127.4199,7.1,61,75,5.14,CA,1680476444
280,minyar,55.0709,57.5485,1.46,94,9,1.0,RU,1680476444
281,cabanas,22.9758,-82.9219,26.19,67,4,5.36,CU,1680476444
282,te anau,-45.4167,167.7167,11.77,61,32,0.94,NZ,1680475847
283,acapulco,16.8634,-99.8901,29.67,50,23,4.6,MX,1680475868
284,mezen,65.8522,44.24,-16.04,98,15,2.56,RU,1680476444
285,soller,39.7662,2.7152,13.81,73,10,8.26,ES,1680476445
286,clyde river,70.4692,-68.5914,-22.87,77,0,3.09,CA,1680476445
287,yar-sale,66.8333,70.8333,-11.35,86,34,4.95,RU,1680475858
288,denison,33.7557,-96.5367,21.2,79,85,4.81,US,1680476409
289,terre haute,39.4667,-87.4139,14.98,53,0,7.2,US,1680476223
290,ahuimanu,21.4447,-157.8378,26.52,84,100,1.79,US,1680476445
291,makat,47.6469,53.3463,9.49,88,96,3.8,KZ,1680476446
292,teluk nibung,3.001,99.8164,24.65,86,100,4.1,ID,1680476446
293,anuppur,23.1,81.6833,21.86,34,17,1.01,IN,1680476446
294,mombetsu,44.3525,143.3525,0.87,62,3,2.41,JP,1680476446
295,aitape,-3.1374,142.3475,26.27,79,100,3.17,PG,1680476446
296,san patricio,28.017,-97.5169,30.66,52,100,7.66,US,1680476446
297,mitchell,43.7094,-98.0298,11.99,32,0,8.23,US,1680476320
298,hlinsko,49.7621,15.9076,3.24,86,57,6.26,CZ,1680476447
299,carutapera,-1.195,-46.02,24.22,93,100,2.42,BR,1680475864
300,hualmay,-11.0964,-77.6139,23.88,85,39,4.21,PE,1680476447
301,mwaya,-9.55,33.95,21.61,94,100,1.56,TZ,1680476447
302,charlottetown,46.2352,-63.1267,1.29,42,0,6.17,CA,1680476447
303,vilhena,-12.7406,-60.1458,24.12,78,40,5.14,BR,1680476447
304,manacapuru,-3.2997,-60.6206,23.7,92,100,2.11,BR,1680476448
305,drovyanaya,51.5833,113.0333,-9.99,58,75,6.37,RU,1680476448
306,zhanaozen,43.3,52.8,6.12,71,68,5.99,KZ,1680476448
307,omsukchan,62.5333,155.8,-17.55,93,63,2.21,RU,1680476448
308,maniitsoq,65.4167,-52.9,-5.99,72,10,3.81,GL,1680476358
309,de aar,-30.6497,24.0123,16.85,70,55,1.85,ZA,1680476448
310,kyzyl-suu,42.3414,78.0056,2.61,35,0,2.37,KG,1680476449
311,talcahuano,-36.7167,-73.1167,16.82,67,0,5.14,CL,1680476449
312,port lincoln,-34.7333,135.8667,17.84,56,72,2.34,AU,1680476449
313,cabedelo,-6.9811,-34.8339,27.37,75,86,3.52,BR,1680475850
314,watertown,42.3709,-71.1828,7.45,24,0,7.6,US,1680475589
315,aklavik,68.2191,-135.0107,-9.13,81,99,3.55,CA,1680475852
316,muros,42.7762,-9.0603,10.47,84,83,3.57,ES,1680475855
317,xichang,27.8964,102.2634,9.94,72,3,1.21,CN,1680476450
318,nouadhibou,20.931,-17.0347,25.99,50,2,5.14,MR,1680476450
319,faya,18.3851,42.4509,15.06,82,56,0.73,SA,1680476450
320,vestmanna,62.1564,-7.1664,4.51,87,100,4.12,FO,1680476450
321,manokwari,-0.8667,134.0833,26.88,79,99,3.35,ID,1680475853
322,alofi,-19.0595,-169.9187,28.94,70,63,8.23,NU,1680475871
323,hobyo,5.3505,48.5268,28.16,76,62,5.27,SO,1680476451
324,atambua,-9.1061,124.8925,24.37,78,63,1.11,ID,1680476451
325,brae,60.3964,-1.353,7.02,81,68,3.01,GB,1680476451
326,haines junction,60.7522,-137.5108,-2.03,40,100,1.03,CA,1680476336
327,masyaf,35.0653,36.3406,9.8,63,75,1.47,SY,1680476451
328,chatrapur,19.35,84.9833,25.02,66,80,0.84,IN,1680476451
329,brownsville,25.9018,-97.4975,29.49,75,79,8.45,US,1680476437
330,inhambane,-23.865,35.3833,21.57,76,10,1.43,MZ,1680476451
331,chitral,35.8462,71.7858,8.96,66,98,1.25,PK,1680476451
332,la rioja,42.25,-2.5,3.88,96,41,1.88,ES,1680476452
333,kamenskiy,50.8855,45.488,6.03,74,92,2.63,RU,1680476452
334,mitu,1.1983,-70.1733,22.81,97,90,0.42,CO,1680476452
335,mulatupo,8.9492,-77.7652,26.5,84,74,2.26,PA,1680476452
336,pontianak,-0.0333,109.3333,23.99,94,20,1.03,ID,1680476452
337,fort saint james,54.4333,-124.25,3.6,55,24,1.5,CA,1680476452
338,shushtar,32.0455,48.8567,14.58,40,0,1.31,IR,1680476452
339,pastavy,55.1168,26.8326,-2.2,84,89,6.52,BY,1680476235
340,kawalu,-7.3817,108.2082,22.88,96,100,0.39,ID,1680476453
341,baykit,61.67,96.37,-12.03,99,99,1.22,RU,1680476296
342,matay,28.419,30.7792,18.51,28,0,3.49,EG,1680476453
343,korla,41.7597,86.1469,0.16,44,0,2.72,CN,1680476453
344,mercedes,-34.6515,-59.4307,19.36,53,93,3.54,AR,1680476453
345,fengcheng,40.4536,124.0717,12.83,35,96,1.34,CN,1680476453
346,mogadishu,2.0371,45.3438,28.04,74,100,2.03,SO,1680476453
347,nuuk,64.1835,-51.7216,-4.6,60,9,4.8,GL,1680475858
348,zheleznodorozhnyy,55.7503,38.0042,7.86,89,100,1.8,RU,1680476453
349,mareeba,-17.0,145.4333,26.4,96,21,2.35,AU,1680476453
350,humaita,-7.5061,-63.0208,23.28,99,72,1.62,BR,1680476453
351,trairi,-3.2778,-39.2689,24.37,86,100,0.86,BR,1680475645
352,torbay,47.6666,-52.7314,4.93,93,100,7.72,CA,1680476454
353,yeppoon,-23.1333,150.7333,22.88,86,98,3.19,AU,1680476454
354,belyy yar,53.6039,91.3903,-9.06,73,0,2.0,RU,1680476454
355,constitucion,-35.3333,-72.4167,14.93,71,9,6.44,CL,1680476278
356,sur,22.5667,59.5289,26.12,65,3,0.63,OM,1680475863
357,pevek,69.7008,170.3133,-26.64,99,100,1.3,RU,1680476454
358,necochea,-38.5473,-58.7368,16.3,74,100,3.08,AR,1680476454
359,brindisi,40.5833,17.6667,13.58,81,100,3.02,IT,1680475855
360,jardim,-21.4803,-56.1381,26.78,65,39,1.01,BR,1680476454
361,saryg-sep,51.5,95.6,-18.15,92,17,1.65,RU,1680476455
362,luganville,-15.5333,167.1667,30.42,70,78,2.65,VU,1680476455
363,kaitangata,-46.2817,169.8464,15.52,64,46,2.05,NZ,1680476455
364,bontang,0.1333,117.5,23.66,95,100,3.63,ID,1680476455
365,margherita,27.2833,95.6833,16.2,95,100,2.78,IN,1680476455
366,havelock,34.8791,-76.9013,16.66,57,0,4.12,US,1680476278
367,conceicao da barra,-18.5933,-39.7322,24.68,81,73,4.36,BR,1680476455
368,petatlan,17.5167,-101.2667,32.01,31,71,2.84,MX,1680476455
369,huaral,-11.495,-77.2078,26.27,78,78,2.51,PE,1680476455
370,kisanga,-7.4362,37.7034,22.82,96,99,1.1,TZ,1680476455
371,yamada,39.4667,141.95,7.4,62,6,1.82,JP,1680475865
372,kudahuvadhoo,2.6708,72.8944,27.65,72,51,1.9,MV,1680475860
373,tilichiki,60.4667,166.1,-2.67,94,100,0.84,RU,1680476456
374,rambha,19.5167,85.1,25.21,77,74,0.85,IN,1680476456
375,hunsur,12.3075,76.2878,20.73,60,43,1.18,IN,1680476456
376,ahipara,-35.1667,173.1667,18.4,64,99,7.85,NZ,1680476456
377,izmalkovo,52.6887,37.964,4.85,82,97,2.85,RU,1680476456
378,tahe,52.3333,124.7333,0.75,92,100,1.66,CN,1680476457
379,isangel,-19.55,169.2667,29.61,69,2,2.28,VU,1680476295
380,chicama,-7.8447,-79.1469,28.3,64,70,4.47,PE,1680476457
381,virginia beach,36.8529,-75.978,14.45,57,20,4.12,US,1680476162
382,kalga,50.9251,118.898,-7.75,75,32,5.18,RU,1680476457
383,pangkalanbuun,-2.6833,111.6167,23.19,94,100,0.77,ID,1680476457
384,itarema,-2.9248,-39.9167,26.26,78,100,2.92,BR,1680476457
385,almora,29.6167,79.6667,8.35,86,2,1.42,IN,1680476457
386,victor harbor,-35.5667,138.6167,14.84,65,66,2.38,AU,1680476202
387,jacobina,-11.1806,-40.5183,25.74,47,66,4.08,BR,1680476458
388,margate,51.3813,1.3862,6.5,79,6,0.45,GB,1680476458
389,halifax,44.6453,-63.5724,5.0,41,5,8.23,CA,1680476281
390,sagua de tanamo,20.5819,-75.2414,25.45,74,4,4.74,CU,1680476458
391,uniontown,39.9001,-79.7164,10.53,37,28,1.79,US,1680476458
392,diego de almagro,-26.3667,-70.05,22.03,53,0,2.45,CL,1680475858
393,cairns,-16.9167,145.7667,28.97,79,40,2.06,AU,1680476458
394,quatre cocos,-20.2078,57.7625,26.16,80,97,5.11,MU,1680476458
395,surt,31.2089,16.5887,17.58,82,2,14.1,LY,1680476459
396,tupiza,-21.45,-65.7167,11.05,83,82,3.27,BO,1680476459
397,pouso alegre,-22.23,-45.9364,18.05,92,71,1.59,BR,1680476089
398,guerrero negro,27.9769,-114.0611,15.58,74,3,9.45,MX,1680476459
399,bereda,43.2686,-7.5406,2.86,100,43,1.58,ES,1680476459
400,rawson,-43.3002,-65.1023,15.55,62,23,8.09,AR,1680476267
401,zhoucheng,35.9122,116.3117,14.17,40,100,7.25,CN,1680476459
402,kruisfontein,-34.0033,24.7314,19.38,79,99,3.41,ZA,1680476459
403,senneterre,48.3835,-77.2328,-1.57,94,100,4.57,CA,1680476460
404,roald,62.5833,6.1333,6.08,65,75,4.12,NO,1680475863
405,cidreira,-30.1811,-50.2056,20.48,65,9,3.46,BR,1680476286
406,nishihara,26.1842,127.7558,20.6,79,20,4.63,JP,1680476460
407,severo-kurilsk,50.6789,156.125,-0.3,90,100,5.25,RU,1680476460
408,kloulklubed,7.0419,134.2556,28.05,72,16,1.48,PW,1680476460
409,chifeng,42.2683,118.9636,8.6,75,100,5.7,CN,1680476460
410,bathsheba,13.2167,-59.5167,26.34,69,40,8.75,BB,1680476460
411,kasongo,-4.45,26.6667,20.19,97,96,1.23,CD,1680476460
412,asau,46.4333,26.4,8.51,97,100,1.16,RO,1680476461
413,havre-saint-pierre,50.2334,-63.5986,1.0,80,75,7.72,CA,1680476461
414,bara,10.3744,10.7288,26.65,13,17,3.6,NG,1680475867
415,lashio,22.9333,97.75,14.59,94,5,0.92,MM,1680476461
416,lazaro cardenas,17.9583,-102.2,28.87,47,92,4.84,MX,1680476462
417,faxinal,-24.0003,-51.3194,18.38,84,46,1.25,BR,1680476462
418,college,64.8569,-147.8028,0.6,79,100,5.14,US,1680476403
419,cuamba,-14.8031,36.5372,18.35,98,49,2.03,MZ,1680476462
420,tocopilla,-22.092,-70.1979,23.07,79,8,3.11,CL,1680476462
421,bonthe,7.5264,-12.505,26.66,86,3,3.1,SL,1680476462
422,kalmunai,7.4167,81.8167,24.73,87,7,2.78,LK,1680476463
423,khandyga,62.6667,135.6,-12.79,92,99,2.48,RU,1680476463
424,ayan,56.45,138.1667,-7.22,69,84,2.65,RU,1680476464
425,makakilo city,21.3469,-158.0858,25.86,77,100,0.0,US,1680476464
426,jinchang,38.4953,102.1739,3.44,38,100,2.76,CN,1680476465
427,saint-joseph,-21.3667,55.6167,24.21,81,99,3.3,RE,1680476465
428,keti bandar,24.1447,67.4497,24.64,76,7,6.02,PK,1680476466
429,winnemucca,40.973,-117.7357,7.03,70,100,2.57,US,1680476466
430,cumana,10.4635,-64.1775,24.76,87,56,5.82,VE,1680476466
431,samoded,63.6083,40.5111,-5.61,94,93,3.81,RU,1680476467
432,coquimbo,-29.9533,-71.3436,16.85,88,20,4.63,CL,1680476397
433,basco,20.4487,121.9702,23.91,73,81,8.22,PH,1680476468
434,diamantino,-14.4086,-56.4461,23.94,85,42,0.81,BR,1680476469
435,ancud,-41.8697,-73.8203,11.1,73,6,1.76,CL,1680476470
436,sinnamary,5.3833,-52.95,24.85,84,88,4.95,GF,1680476470
437,xambioa,-6.4111,-48.5364,22.98,96,24,1.32,BR,1680476470
438,kaoma,-14.7833,24.8,16.46,97,77,2.23,ZM,1680476471
439,muli,2.9167,73.5667,27.67,70,72,2.15,MV,1680476471
440,raahe,64.6833,24.4833,-10.95,96,10,1.92,FI,1680476472
441,karratha,-20.7377,116.8463,27.7,75,53,2.81,AU,1680476204
442,karaman,37.0833,33.25,8.25,92,100,4.58,TR,1680476472
443,saint george,37.1041,-113.5841,22.19,20,0,4.47,US,1680476472
444,reporoa,-38.4333,176.35,19.69,48,23,2.25,NZ,1680476472
445,zharkent,44.1628,80.0,4.13,35,0,1.04,KZ,1680476473
446,khani,41.9563,42.9566,5.76,78,88,0.93,GE,1680476473
447,eenhana,-17.4667,16.3333,20.28,65,31,2.95,NA,1680476473
448,tabou,4.423,-7.3528,26.51,86,21,2.4,CI,1680476473
449,laguna,38.421,-121.4238,17.99,53,20,6.17,US,1680476474
450,thung song,8.1645,99.6804,22.69,95,78,0.5,TH,1680476474
451,egvekinot,66.3167,-179.1667,-16.94,94,100,2.62,RU,1680476474
452,westport,41.1415,-73.3579,10.05,23,0,5.14,US,1680476179
453,lae,-6.7221,146.9847,25.37,78,89,0.08,PG,1680476474
454,kalianget,-7.05,113.9333,25.55,83,100,2.12,ID,1680476475
455,adrar,20.5022,-10.0711,25.13,5,0,2.87,MR,1680476375
456,san andres,12.5847,-81.7006,30.01,66,20,7.2,CO,1680476475
457,portland,45.5234,-122.6762,8.64,87,100,3.6,US,1680476098
458,chernyshevskiy,63.0128,112.4714,-10.83,93,100,5.03,RU,1680476475
459,whitianga,-36.8333,175.7,19.34,59,4,4.39,NZ,1680476476
460,moyo,3.6609,31.7247,21.27,68,55,0.76,UG,1680476476
461,leh,34.1667,77.5833,-7.62,81,84,0.4,IN,1680476476
462,vorontsovka,50.6132,40.3549,6.25,75,42,2.45,RU,1680476476
463,mount gambier,-37.8333,140.7667,13.15,70,2,1.71,AU,1680476476
464,moissac,44.1024,1.0945,9.93,88,97,5.0,FR,1680476477
465,vao,-22.6667,167.4833,25.55,81,47,2.77,NC,1680476477
466,peniche,39.3558,-9.3811,12.47,85,61,5.24,PT,1680476477
467,brazzaville,-4.2658,15.2832,26.17,85,54,0.62,CG,1680476477
468,olafsvik,64.8945,-23.7142,3.89,91,100,5.24,IS,1680476236
469,kagadi,0.9606,30.7967,16.6,98,34,1.22,UG,1680476477
470,half moon bay,37.4636,-122.4286,15.06,67,100,9.77,US,1680476426
471,huntsville,34.7304,-86.5861,21.27,30,0,0.45,US,1680476431
472,emba,48.8264,58.1442,7.39,32,55,7.83,KZ,1680476478
473,bud,39.447,-86.1758,14.94,54,6,4.47,US,1680476478
474,magadan,59.5667,150.8,-5.26,78,81,2.84,RU,1680476479
475,taveta,-3.3963,37.6736,21.51,88,78,1.12,KE,1680476479
476,urumqi,43.801,87.6005,-4.47,50,0,1.0,CN,1680476479
477,aljezur,37.3191,-8.8033,13.12,71,23,2.83,PT,1680476479
478,dagda,56.0951,27.5372,-2.43,80,87,5.56,LV,1680476479
479,qovlar,40.948,45.735,6.49,80,84,0.75,AZ,1680476480
480,wellington,-41.2866,174.7756,14.21,93,75,9.77,NZ,1680476480
481,narsaq,60.9167,-46.05,5.12,81,100,3.81,GL,1680476480
482,mogocha,53.7333,119.7667,-10.5,86,97,2.67,RU,1680476480
483,willowmore,-33.2926,23.4895,16.31,73,100,1.36,ZA,1680476480
484,solnechnyy,50.7214,136.6319,4.33,92,66,0.97,RU,1680476415
485,pathalgaon,22.5667,83.4667,21.42,37,27,1.28,IN,1680476480
486,san ignacio,17.1561,-89.0714,34.08,38,75,5.14,BZ,1680476481
487,aksarka,66.5606,67.7975,-10.34,86,19,5.26,RU,1680476183
488,tommot,58.9564,126.2925,-15.74,97,99,1.56,RU,1680476481
489,puerto madryn,-42.7692,-65.0385,16.46,59,8,7.4,AR,1680476481
490,saint anthony,45.0205,-93.218,7.96,57,20,7.72,US,1680476482
491,nizhniy tsasuchey,50.5167,115.1333,-11.27,73,19,6.79,RU,1680476482
492,hayden,47.766,-116.7866,5.54,72,75,5.66,US,1680476420
493,ayagoz,47.9714,80.4392,-6.64,60,9,4.31,KZ,1680476482
494,woodward,36.4337,-99.3904,31.57,23,0,7.72,US,1680476482
495,kaohsiung,22.6163,120.3133,23.97,78,75,1.54,TW,1680475968
496,pisco,-13.7,-76.2167,26.03,78,0,8.75,PE,1680476302
497,praia,14.9215,-23.5087,25.3,69,0,5.14,CV,1680476482
498,karasjok,69.4719,25.5112,-16.96,96,28,2.26,NO,1680476482
499,carbondale,37.7273,-89.2168,19.16,42,0,7.72,US,1680476370
500,ullapool,57.8987,-5.1604,6.17,88,100,2.25,GB,1680476483
501,kayerkan,69.3497,87.7602,-10.4,96,100,5.13,RU,1680476483
502,sondershausen,51.3667,10.8667,2.19,63,18,5.06,DE,1680476483
503,kavaratti,10.5669,72.642,27.76,68,9,4.45,IN,1680476483
504,apache junction,33.4151,-111.5496,27.56,13,0,1.34,US,1680476406
505,el silencio,10.5,-66.9167,20.47,73,68,3.6,VE,1680476483
506,fort nelson,58.8053,-122.7002,-0.03,49,75,1.79,CA,1680476483
507,prince rupert,54.3161,-130.3201,7.05,61,0,4.63,CA,1680476484
508,flin flon,54.7682,-101.865,-8.09,41,40,6.69,CA,1680476484
509,bathurst,-33.4166,149.5806,17.76,75,1,5.27,AU,1680476428
510,maridi,4.9158,29.4742,22.64,55,21,2.25,SS,1680476484
511,okahandja,-21.9833,16.9167,16.54,36,25,0.35,NA,1680476484
512,nsanje,-16.92,35.262,20.26,98,90,1.23,MW,1680476484
513,kangaatsiaq,68.3065,-53.4641,-19.8,92,100,2.65,GL,1680476484
514,redding,40.5865,-122.3917,15.57,50,100,5.14,US,1680476327
515,beloha,-25.1667,45.05,21.04,91,47,3.96,MG,1680476484
516,batetskiy,58.6461,30.3027,-2.85,95,82,4.51,RU,1680476485
517,lyngseidet,69.5763,20.2189,-2.0,76,100,6.48,NO,1680476485
518,batken,39.8333,71.0,4.91,61,95,1.41,KG,1680476485
519,tahoua,14.8888,5.2692,25.74,10,12,3.85,NE,1680476485
520,kikwit,-5.041,18.8162,20.46,94,81,0.59,CD,1680476485
521,nakapiripirit,1.9167,34.7833,18.85,80,51,1.8,UG,1680476485
522,ende,-8.8432,121.6623,25.83,86,98,1.34,ID,1680476485
523,pulgaon,20.7333,78.3333,27.09,26,52,3.33,IN,1680476486
524,rabo de peixe,37.8,-25.5833,12.73,71,20,4.63,PT,1680476486
525,abu dhabi,24.4667,54.3667,23.3,63,0,5.14,AE,1680476300
526,alappuzha,9.49,76.3264,26.2,81,81,2.26,IN,1680476475
527,hammerfest,70.6634,23.6821,-0.75,69,20,3.6,NO,1680476486
528,olga,43.7444,135.2892,7.22,64,1,0.79,RU,1680476486
529,nchelenge,-9.3451,28.734,19.88,92,89,2.45,ZM,1680476486
530,tupik,54.4253,119.9327,-10.94,92,100,2.19,RU,1680476486
531,port shepstone,-30.7414,30.455,21.69,87,45,5.5,ZA,1680476486
532,mana,5.6592,-53.7767,24.82,84,87,4.24,GF,1680476487
533,pingzhuang,42.0372,119.2889,11.13,30,100,0.88,CN,1680476487
534,itoman,26.1247,127.6694,21.01,74,20,4.63,JP,1680476487
535,marsh harbour,26.5412,-77.0636,24.84,76,1,3.48,BS,1680476289
536,los llanos de aridane,28.6585,-17.9182,18.4,75,40,6.17,ES,1680476487
537,tchamba,9.0333,1.4167,29.63,44,54,3.69,TG,1680476488
538,kimbe,-5.5502,150.1429,28.7,74,61,0.34,PG,1680476488
539,kokopo,-4.352,152.2633,27.58,74,73,0.42,PG,1680476488
540,nelson bay,-32.7167,152.15,21.11,96,32,3.67,AU,1680476383
541,asmar,35.0333,71.3581,12.98,86,100,1.73,AF,1680476489
542,rocha,-34.4833,-54.3333,16.98,68,60,2.13,UY,1680476489
543,pirapora,-17.345,-44.9419,23.4,67,88,3.04,BR,1680476088
544,teknaf,20.8624,92.3058,23.03,85,21,0.77,BD,1680476489
545,pavlogradka,54.2024,73.5592,-4.22,71,0,3.53,RU,1680476489
546,jutai,-5.1833,-68.9,22.83,92,76,1.02,BR,1680476489
547,longyan,25.1072,117.0225,16.33,92,53,1.33,CN,1680476489
548,san ramon de la nueva oran,-23.1322,-64.326,28.01,73,97,1.25,AR,1680476490
549,haian,32.5436,120.45,13.89,1,100,8.01,CN,1680476490
550,khorixas,-20.3667,14.9667,19.63,44,42,1.62,NA,1680476490
